{
"type": "FeatureCollection",
"name": "ARCHIOLOGICAL",
"crs": { "type": "name", "properties": { "name": "urn:ogc:def:crs:OGC:1.3:CRS84" } },
"features": [
{ "type": "Feature", "properties": { "site_name": "Mannar Fort", "site_name_": null, "period": "Dutch", "descriptio": null, "TYPE": "Archiological" }, "geometry": { "type": "Point", "coordinates": [ 79.91900233832807, 8.976033942112988 ] } },
{ "type": "Feature", "properties": { "site_name": "Arippu Fort", "site_name_": null, "period": "Dutch", "descriptio": null, "TYPE": "Archiological" }, "geometry": { "type": "Point", "coordinates": [ 79.93183655329797, 8.793014161290197 ] } },
{ "type": "Feature", "properties": { "site_name": "Doric Building", "site_name_": null, "period": "British", "descriptio": null, "TYPE": "Archiological" }, "geometry": { "type": "Point", "coordinates": [ 79.936471563284186, 8.781309963300654 ] } },
{ "type": "Feature", "properties": { "site_name": "Jetty, Taleimannar", "site_name_": null, "period": "British", "descriptio": null, "TYPE": "Archiological" }, "geometry": { "type": "Point", "coordinates": [ 79.72782985992265, 9.075201451056943 ] } },
{ "type": "Feature", "properties": { "site_name": "Biobab Tree", "site_name_": null, "period": "Medieval", "descriptio": null, "TYPE": "Archiological" }, "geometry": { "type": "Point", "coordinates": [ 79.925328471308049, 8.981994996105758 ] } },
{ "type": "Feature", "properties": { "site_name": "St Merry's Church", "site_name_": null, "period": "British", "descriptio": null, "TYPE": "Archiological" }, "geometry": { "type": "Point", "coordinates": [ 79.911880281349752, 8.985922127104844 ] } },
{ "type": "Feature", "properties": { "site_name": "Manthai Excavation Site", "site_name_": null, "period": "Anuradhapura/Polonnaruwa", "descriptio": null, "TYPE": "Archiological" }, "geometry": { "type": "Point", "coordinates": [ 79.963186928191632, 8.956529416122526 ] } },
{ "type": "Feature", "properties": { "site_name": "Olutuduwa Kathar Church", "site_name_": null, "period": "British", "descriptio": null, "TYPE": "Archiological" }, "geometry": { "type": "Point", "coordinates": [ 79.843275462561692, 9.034044212072404 ] } },
{ "type": "Feature", "properties": { "site_name": "Dutch Church, Kappakovil", "site_name_": null, "period": "Dutch", "descriptio": null, "TYPE": "Archiological" }, "geometry": { "type": "Point", "coordinates": [ 79.842331635563085, 9.068379727038783 ] } },
{ "type": "Feature", "properties": { "site_name": "Dutch Watch Tower", "site_name_": null, "period": "Dutch", "descriptio": null, "TYPE": "Archiological" }, "geometry": { "type": "Point", "coordinates": [ 79.861453944503225, 9.06952564003347 ] } },
{ "type": "Feature", "properties": { "site_name": "Survey Tower, Urumalei", "site_name_": null, "period": "British", "descriptio": null, "TYPE": "Archiological" }, "geometry": { "type": "Point", "coordinates": [ 79.700311529008744, 9.094292885044087 ] } },
{ "type": "Feature", "properties": { "site_name": "Thalei Mannar Old Hospital", "site_name_": null, "period": "British", "descriptio": null, "TYPE": "Archiological" }, "geometry": { "type": "Point", "coordinates": [ 79.728709947919342, 9.088506645043585 ] } },
{ "type": "Feature", "properties": { "site_name": "Maligapitti Ruins", "site_name_": null, "period": "Anuradhapura", "descriptio": null, "TYPE": "Archiological" }, "geometry": { "type": "Point", "coordinates": [ 80.010675109049942, 8.852312621214391 ] } },
{ "type": "Feature", "properties": { "site_name": "Manthottam Ruins", "site_name_": null, "period": "Anuradhapura", "descriptio": null, "TYPE": "Archiological" }, "geometry": { "type": "Point", "coordinates": [ 80.006248198062039, 8.88168607818657 ] } },
{ "type": "Feature", "properties": { "site_name": "Thekkama Anicut", "site_name_": null, "period": "Anuradhapura", "descriptio": null, "TYPE": "Archiological" }, "geometry": { "type": "Point", "coordinates": [ 80.183709218524086, 8.741501072284644 ] } },
{ "type": "Feature", "properties": { "site_name": "Akithaimuruppu Devala", "site_name_": null, "period": "Anuradhapura", "descriptio": null, "TYPE": "Archiological" }, "geometry": { "type": "Point", "coordinates": [ 80.164917007580655, 8.756863396273815 ] } },
{ "type": "Feature", "properties": { "site_name": "Periyaweli Stupa Mound", "site_name_": null, "period": "Anuradhapura", "descriptio": null, "TYPE": "Archiological" }, "geometry": { "type": "Point", "coordinates": [ 80.171683028560878, 8.740943127287872 ] } },
{ "type": "Feature", "properties": { "site_name": "Kallikulam Ruins", "site_name_": null, "period": "Anuradhapura", "descriptio": null, "TYPE": "Archiological" }, "geometry": { "type": "Point", "coordinates": [ 80.194585097494169, 8.686997214335458 ] } },
{ "type": "Feature", "properties": { "site_name": "Ottamkulam Ruins", "site_name_": null, "period": "Anuradhapura", "descriptio": null, "TYPE": "Archiological" }, "geometry": { "type": "Point", "coordinates": [ 80.215486402430599, 8.682946045334729 ] } },
{ "type": "Feature", "properties": { "site_name": "Kalyanthottam Settlment Site", "site_name_": null, "period": "Anuradhapura", "descriptio": null, "TYPE": "Archiological" }, "geometry": { "type": "Point", "coordinates": [ 80.210359367445719, 8.691464197327582 ] } },
{ "type": "Feature", "properties": { "site_name": "Murukkan Ruins", "site_name_": null, "period": "Anuradhapura", "descriptio": null, "TYPE": "Archiological" }, "geometry": { "type": "Point", "coordinates": [ 80.039273468962435, 8.835988227224114 ] } },
{ "type": "Feature", "properties": { "site_name": "Manthei Adampan Rd. South Ruins", "site_name_": null, "period": "Anuradhapura", "descriptio": null, "TYPE": "Archiological" }, "geometry": { "type": "Point", "coordinates": [ 79.971173005167287, 8.94777024212935 ] } },
{ "type": "Feature", "properties": { "site_name": "Manthei Adampan Rd. North Ruins", "site_name_": null, "period": "Anuradhapura", "descriptio": null, "TYPE": "Archiological" }, "geometry": { "type": "Point", "coordinates": [ 79.970653005168828, 8.949201267128101 ] } },
{ "type": "Feature", "properties": { "site_name": "Pillayar Kovil Madam (ambalama)", "site_name_": null, "period": "Over 100 years", "descriptio": null, "TYPE": "Archiological" }, "geometry": { "type": "Point", "coordinates": [ 80.05498172690443, 9.022164888038336 ] } },
{ "type": "Feature", "properties": { "site_name": "Sawarikulam Setlment Site", "site_name_": null, "period": "Anuradhapura", "descriptio": null, "TYPE": "Archiological" }, "geometry": { "type": "Point", "coordinates": [ 80.073812126845468, 9.041217067015651 ] } },
{ "type": "Feature", "properties": { "site_name": "Sengalapoottu Setlement Site", "site_name_": null, "period": "Anuradhapura", "descriptio": null, "TYPE": "Archiological" }, "geometry": { "type": "Point", "coordinates": [ 80.069505082858555, 9.04547515301245 ] } },
{ "type": "Feature", "properties": { "site_name": "Kombhathukki Thotta Putti Setlment Site", "site_name_": null, "period": "Anuradhapura", "descriptio": null, "TYPE": "Archiological" }, "geometry": { "type": "Point", "coordinates": [ 80.073851179844922, 9.050816208006269 ] } },
{ "type": "Feature", "properties": { "site_name": "Attathivu Setlment Site", "site_name_": null, "period": "Anuradhapura", "descriptio": null, "TYPE": "Archiological" }, "geometry": { "type": "Point", "coordinates": [ 80.052892659911123, 9.016023809044768 ] } },
{ "type": "Feature", "properties": { "site_name": "Sengalputti Setlment Site", "site_name_": null, "period": "Anuradhapura", "descriptio": null, "TYPE": "Archiological" }, "geometry": { "type": "Point", "coordinates": [ 80.068460957862655, 9.02575986803194 ] } },
{ "type": "Feature", "properties": { "site_name": "Muthumari Amman Ruins", "site_name_": null, "period": "Anuradhapura", "descriptio": null, "TYPE": "Archiological" }, "geometry": { "type": "Point", "coordinates": [ 80.078349427829664, 9.082920655973908 ] } },
{ "type": "Feature", "properties": { "site_name": "Mundanputti Ambalama", "site_name_": null, "period": "Over 100 years", "descriptio": null, "TYPE": "Archiological" }, "geometry": { "type": "Point", "coordinates": [ 80.109984295729546, 9.149986468901734 ] } },
{ "type": "Feature", "properties": { "site_name": "Kallaadi Warichchi Mottei Kulam Ruins", "site_name_": null, "period": "Anuradhapura", "descriptio": null, "TYPE": "Archiological" }, "geometry": { "type": "Point", "coordinates": [ 80.080300333824624, 9.060368312995575 ] } },
{ "type": "Feature", "properties": { "site_name": "Pokkarawanni Ruins", "site_name_": null, "period": "Anuradhapura", "descriptio": null, "TYPE": "Archiological" }, "geometry": { "type": "Point", "coordinates": [ 80.321085153097698, 8.890320518109982 ] } },
{ "type": "Feature", "properties": { "site_name": "Ruins in Shivan Kovil", "site_name_": null, "period": "Anuradhapura", "descriptio": null, "TYPE": "Archiological" }, "geometry": { "type": "Point", "coordinates": [ 80.361445565977789, 8.851299733139234 ] } },
{ "type": "Feature", "properties": { "site_name": "Wankalei Settlement Site", "site_name_": null, "period": "Anuradhapura/Polonnaruwa", "descriptio": null, "TYPE": "Archiological" }, "geometry": { "type": "Point", "coordinates": [ 79.937615053275636, 8.869164258213987 ] } },
{ "type": "Feature", "properties": { "site_name": "Ancient Port of Matota", "site_name_": null, "period": "Anuradhapura", "descriptio": null, "TYPE": "Archiological" }, "geometry": { "type": "Point", "coordinates": [ 79.963844960189377, 8.960505470118497 ] } },
{ "type": "Feature", "properties": { "site_name": "Niravikulam ruins", "site_name_": null, "period": "Anuradhapura", "descriptio": null, "TYPE": "Archiological" }, "geometry": { "type": "Point", "coordinates": [ 80.269421596252116, 8.935194451077415 ] } },
{ "type": "Feature", "properties": { "site_name": "Niravikulam ruins (near the tank)", "site_name_": null, "period": "Anuradhapura", "descriptio": null, "TYPE": "Archiological" }, "geometry": { "type": "Point", "coordinates": [ 80.270012641250005, 8.941851545070802 ] } },
{ "type": "Feature", "properties": { "site_name": "Palampiddi", "site_name_": null, "period": "Anuradhapura", "descriptio": null, "TYPE": "Archiological" }, "geometry": { "type": "Point", "coordinates": [ 80.218000768408899, 8.930109654093334 ] } },
{ "type": "Feature", "properties": { "site_name": "Ruins in Muthu Amman Kovil, Palampiddi", "site_name_": null, "period": "Anuradhapura", "descriptio": null, "TYPE": "Archiological" }, "geometry": { "type": "Point", "coordinates": [ 80.212609683425356, 8.929851680094721 ] } },
{ "type": "Feature", "properties": { "site_name": "Ruined stupa, Mullikulam", "site_name_": null, "period": "Anuradhapura", "descriptio": null, "TYPE": "Archiological" }, "geometry": { "type": "Point", "coordinates": [ 80.303773897150037, 8.892759647111287 ] } },
{ "type": "Feature", "properties": { "site_name": "Mullikulum South Ruins", "site_name_": null, "period": "Anuradhapura", "descriptio": null, "TYPE": "Archiological" }, "geometry": { "type": "Point", "coordinates": [ 80.303117910151798, 8.896957712107378 ] } },
{ "type": "Feature", "properties": { "site_name": "Ruined Stupa, Sekkadikulam", "site_name_": null, "period": "Anuradhapura", "descriptio": null, "TYPE": "Archiological" }, "geometry": { "type": "Point", "coordinates": [ 80.354700580996962, 8.873339090119286 ] } },
{ "type": "Feature", "properties": { "site_name": "Ruins near Vilathikulum Tank", "site_name_": null, "period": "Anuradhapura", "descriptio": null, "TYPE": "Archiological" }, "geometry": { "type": "Point", "coordinates": [ 80.355497737993119, 8.899962474093304 ] } },
{ "type": "Feature", "properties": { "site_name": "Kollamkulam (Udayalputti Ruins)", "site_name_": null, "period": "Anuradhapura", "descriptio": null, "TYPE": "Archiological" }, "geometry": { "type": "Point", "coordinates": [ 80.361224838975772, 8.902179475089959 ] } },
{ "type": "Feature", "properties": { "site_name": "Maradamadu Ruins", "site_name_": null, "period": "Anuradhapura", "descriptio": null, "TYPE": "Archiological" }, "geometry": { "type": "Point", "coordinates": [ 80.376482723933151, 8.837634453149271 ] } },
{ "type": "Feature", "properties": { "site_name": "Sinnawalayankattu Ruins", "site_name_": null, "period": "Anuradhapura", "descriptio": null, "TYPE": "Archiological" }, "geometry": { "type": "Point", "coordinates": [ 80.337884752043735, 8.952578335045995 ] } },
{ "type": "Feature", "properties": { "site_name": "Malwatu Oya Ruins, Madu Road", "site_name_": null, "period": "Anuradhapura", "descriptio": null, "TYPE": "Archiological" }, "geometry": { "type": "Point", "coordinates": [ 80.144941778640927, 8.772235728263171 ] } },
{ "type": "Feature", "properties": { "site_name": "Ruins in Uma Kovil", "site_name_": null, "period": "Anuradhapura", "descriptio": null, "TYPE": "Archiological" }, "geometry": { "type": "Point", "coordinates": [ 80.132418626678827, 8.780424914257971 ] } },
{ "type": "Feature", "properties": { "site_name": "Kalkuari Ruins", "site_name_": null, "period": "Polonnaruwa", "descriptio": null, "TYPE": "Archiological" }, "geometry": { "type": "Point", "coordinates": [ 80.13766369366293, 8.777496844259678 ] } },
{ "type": "Feature", "properties": { "site_name": "Sinnapandivirichchan Ruins", "site_name_": null, "period": "Anuradhapura", "descriptio": null, "TYPE": "Archiological" }, "geometry": { "type": "Point", "coordinates": [ 80.205848023451466, 8.827350213196089 ] } },
{ "type": "Feature", "properties": { "site_name": "Periyapandiviirichchan", "site_name_": null, "period": "Anuradhapura", "descriptio": null, "TYPE": "Archiological" }, "geometry": { "type": "Point", "coordinates": [ 80.226390310389093, 8.821391017197385 ] } },
{ "type": "Feature", "properties": { "site_name": "Ebawalapitiya Rideebadialla Anicut", "site_name_": "එම්බාවල රිදීබැදිගල අමුණ", "period": null, "descriptio": null, "TYPE": "Archiological" }, "geometry": { "type": "Point", "coordinates": [ 80.235406036451934, 7.735132124257528 ] } },
{ "type": "Feature", "properties": { "site_name": "Mookalanyaya Silvathanna Inscription", "site_name_": "මූකලන්යාය සිල්වත්තන සෙල්ලිපිය", "period": null, "descriptio": null, "TYPE": "Archiological" }, "geometry": { "type": "Point", "coordinates": [ 80.066163562001336, 7.480301999552561 ] } },
{ "type": "Feature", "properties": { "site_name": "Diyadora Ihala Kohotte Archaeological Site", "site_name_": "දියදොර ඉහළ කෝට්ටේ පුරා විද්‍යා ස්ථානය", "period": null, "descriptio": null, "TYPE": "Archiological" }, "geometry": { "type": "Point", "coordinates": [ 80.063436111012336, 7.459534100573834 ] } },
{ "type": "Feature", "properties": { "site_name": "Hiripokuna Nikapitiya Pansalhena Archaeological Site", "site_name_": "හිරිපොකුණ නිකපිටිය පන්සල්හේන පුරා විද්‍යා ස්ථානය", "period": null, "descriptio": null, "TYPE": "Archiological" }, "geometry": { "type": "Point", "coordinates": [ 80.082496829934726, 7.615019339414994 ] } },
{ "type": "Feature", "properties": { "site_name": "Othegama Ancient Padawewa Bunt", "site_name_": "ඔතේගම පඩාවැව පැරණි වැවි බැම්ම", "period": null, "descriptio": null, "TYPE": "Archiological" }, "geometry": { "type": "Point", "coordinates": [ 80.103607908868796, 7.622167420402432 ] } }
]
}
